City_ID,City,Country,Date,Lat,Lng,Max Temp,Humidity,Cloudiness,Wind Speed,Current Description,Rain in Inches (last 3 hours),Snow in Inches (last 3 hours)
0,Mahebourg,MU,2020-05-10 20:40:08,-20.41,57.7,73.4,56,40,9.17,scattered clouds,0.0,0.0
1,Qaanaaq,GL,2020-05-10 20:40:08,77.48,-69.36,11.98,84,0,2.15,clear sky,0.0,0.0
2,Mezen,RU,2020-05-10 20:40:08,65.85,44.24,31.35,98,0,4.79,clear sky,0.0,0.0
3,Rikitea,PF,2020-05-10 20:40:09,-23.12,-134.97,76.06,73,4,10.25,clear sky,0.0,0.0
4,Port Elizabeth,ZA,2020-05-10 20:40:09,-33.92,25.57,59.0,72,0,3.36,clear sky,0.0,0.0
5,Talnakh,RU,2020-05-10 20:40:09,69.49,88.4,30.2,92,75,4.47,broken clouds,0.0,0.0
6,Mataura,NZ,2020-05-10 20:40:09,-46.19,168.86,46.44,82,71,3.36,broken clouds,0.0,0.0
7,Nizhneyansk,NZ,2020-05-10 20:40:09,-46.19,168.86,46.44,82,71,3.36,broken clouds,0.0,0.0
8,Saint-Philippe,RE,2020-05-10 20:47:43,-21.36,55.77,68.0,56,90,8.05,overcast clouds,0.0,0.0
9,Alta Floresta,BR,2020-05-10 20:47:44,-9.88,-56.09,77.74,93,100,3.76,light rain,0.0,0.0
10,Hermanus,ZA,2020-05-10 20:47:44,-34.42,19.23,57.99,91,0,4.0,clear sky,0.0,0.0
11,Tonekabon,IR,2020-05-10 20:47:04,36.82,50.87,59.0,100,90,11.41,light rain,0.0,0.0
12,Kalmunai,LK,2020-05-10 20:47:44,7.42,81.82,81.48,80,98,4.0,overcast clouds,0.0,0.0
13,Saskylakh,RU,2020-05-10 20:47:44,71.92,114.08,14.49,95,46,7.09,scattered clouds,0.0,0.0
14,Taolanaro,RU,2020-05-10 20:47:44,71.92,114.08,14.49,95,46,7.09,scattered clouds,0.0,0.0
15,Barentsburg,RU,2020-05-10 20:47:44,71.92,114.08,14.49,95,46,7.09,scattered clouds,0.0,0.0
16,Port Alfred,ZA,2020-05-10 20:47:44,-33.59,26.89,71.01,48,0,7.81,clear sky,0.0,0.0
17,Busselton,AU,2020-05-10 20:47:44,-33.65,115.33,48.0,73,88,2.06,overcast clouds,0.0,0.0
18,Ancud,CL,2020-05-10 20:47:45,-41.87,-73.82,55.99,76,75,5.82,broken clouds,0.0,0.0
19,Kikwit,CD,2020-05-10 20:47:45,-5.04,18.82,72.52,97,100,0.18,overcast clouds,0.0,0.0
20,Martil,MA,2020-05-10 20:47:45,35.62,-5.28,64.4,72,75,12.75,broken clouds,0.0,0.0
21,Albany,US,2020-05-10 20:45:31,42.6,-73.97,55.99,46,97,1.99,overcast clouds,0.0,0.0
22,Khandyga,RU,2020-05-10 20:47:45,62.67,135.6,33.67,93,99,1.03,overcast clouds,0.0,0.0
23,Gallup,US,2020-05-10 20:47:45,35.53,-108.74,80.6,12,40,8.05,scattered clouds,0.0,0.0
24,Dingle,PH,2020-05-10 20:47:45,11.0,122.67,78.66,79,98,5.01,overcast clouds,0.0,0.0
25,Beyneu,KZ,2020-05-10 20:47:45,45.32,55.2,63.52,81,100,15.3,light rain,0.0,0.0
26,Drayton Valley,CA,2020-05-10 20:47:46,53.22,-114.99,47.46,55,99,11.39,light rain,0.0,0.0
27,Fort Nelson,CA,2020-05-10 20:44:18,58.81,-122.7,51.8,34,75,12.75,broken clouds,0.0,0.0
28,Ushuaia,AR,2020-05-10 20:47:46,-54.8,-68.3,44.6,81,89,3.38,light rain,0.0,0.0
29,Arkhara,RU,2020-05-10 20:47:46,49.42,130.08,40.44,87,1,5.19,clear sky,0.0,0.0
30,Punta Arenas,CL,2020-05-10 20:47:46,-53.15,-70.92,46.4,87,75,13.87,light rain,0.0,0.0
31,Kodiak,US,2020-05-10 20:47:46,57.79,-152.41,44.6,87,75,5.82,mist,0.0,0.0
32,Tiko,CM,2020-05-10 20:47:46,4.07,9.37,82.4,83,40,1.12,thunderstorm,0.0,0.0
33,Lebu,CL,2020-05-10 20:47:46,-37.62,-73.65,56.62,78,30,5.39,scattered clouds,0.0,0.0
34,Chokurdakh,RU,2020-05-10 20:47:47,70.63,147.92,30.42,99,98,15.59,light snow,0.0,0.0
35,Dikson,RU,2020-05-10 20:47:47,73.51,80.55,21.88,98,0,10.83,clear sky,0.0,0.0
36,Iqaluit,CA,2020-05-10 20:47:47,63.75,-68.51,26.6,68,75,28.86,broken clouds,0.0,0.0
37,Bluff,NZ,2020-05-10 20:47:47,-46.6,168.33,51.22,77,98,10.56,overcast clouds,0.0,0.0
38,Tambun,ID,2020-05-10 20:47:47,-6.26,107.07,80.6,88,20,3.36,haze,0.0,0.0
39,Aquiraz,BR,2020-05-10 20:47:47,-3.9,-38.39,84.2,70,75,12.75,broken clouds,0.0,0.0
40,Praia,CV,2020-05-10 20:47:47,14.92,-23.51,75.2,69,20,16.11,few clouds,0.0,0.0
41,Kenai,US,2020-05-10 20:47:47,60.55,-151.26,53.6,61,75,10.29,broken clouds,0.0,0.0
42,Natubleng,PH,2020-05-10 20:47:48,16.7,120.78,53.74,100,0,2.42,clear sky,0.0,0.0
43,Clyde River,CA,2020-05-10 20:47:48,70.47,-68.59,14.0,72,90,4.7,overcast clouds,0.0,0.0
44,Bontang,ID,2020-05-10 20:47:48,0.13,117.5,78.06,88,80,6.53,light rain,0.0,0.0
45,Husavik,IS,2020-05-10 20:47:48,66.04,-17.34,48.2,31,7,34.45,clear sky,0.0,0.0
46,Hailar,CN,2020-05-10 20:47:48,49.2,119.7,48.96,64,100,14.88,light rain,0.0,0.0
47,Toliary,CN,2020-05-10 20:47:48,49.2,119.7,48.96,64,100,14.88,light rain,0.0,0.0
48,Puerto Ayora,EC,2020-05-10 20:47:48,-0.74,-90.35,87.8,62,20,17.22,few clouds,0.0,0.0
49,Hilo,US,2020-05-10 20:45:40,19.73,-155.09,80.6,54,75,4.7,broken clouds,0.0,0.0
50,Longyearbyen,SJ,2020-05-10 20:47:48,78.22,15.64,17.6,61,75,6.93,broken clouds,0.0,0.0
51,Belushya Guba,SJ,2020-05-10 20:47:48,78.22,15.64,17.6,61,75,6.93,broken clouds,0.0,0.0
52,Tsihombe,SJ,2020-05-10 20:47:48,78.22,15.64,17.6,61,75,6.93,broken clouds,0.0,0.0
53,Roald,NO,2020-05-10 20:47:49,62.58,6.13,37.99,74,40,13.87,shower rain,0.0,0.0
54,Port Hawkesbury,CA,2020-05-10 20:47:49,45.62,-61.35,42.01,60,90,21.92,overcast clouds,0.0,0.0
55,Grand River South East,CA,2020-05-10 20:47:49,45.62,-61.35,42.01,60,90,21.92,overcast clouds,0.0,0.0
56,Jamestown,US,2020-05-10 20:47:29,42.1,-79.24,55.0,53,90,16.11,overcast clouds,0.0,0.0
57,Tuktoyaktuk,CA,2020-05-10 20:47:49,69.45,-133.04,35.6,80,75,9.17,broken clouds,0.0,0.0
58,Khatanga,RU,2020-05-10 20:47:49,71.97,102.5,21.7,96,91,5.79,overcast clouds,0.0,0.0
59,Kemin,KG,2020-05-10 20:47:49,42.78,75.69,52.45,69,0,3.51,clear sky,0.0,0.0
60,Kiama,AU,2020-05-10 20:47:50,-34.68,150.87,46.99,64,0,7.05,clear sky,0.0,0.0
61,Atuona,PF,2020-05-10 20:47:50,-9.8,-139.03,81.3,78,17,16.46,light rain,0.0,0.0
62,Taltal,CL,2020-05-10 20:47:50,-25.4,-70.48,64.69,68,26,5.5,scattered clouds,0.0,0.0
63,Hobart,AU,2020-05-10 20:47:50,-42.88,147.33,50.0,71,75,13.87,broken clouds,0.0,0.0
64,Sentyabrskiy,AU,2020-05-10 20:47:50,-42.88,147.33,50.0,71,75,13.87,broken clouds,0.0,0.0
65,Robertsport,LR,2020-05-10 20:47:50,6.75,-11.37,81.84,80,8,13.49,clear sky,0.0,0.0
66,Lasa,IT,2020-05-10 20:47:50,46.62,10.7,51.8,81,40,8.05,scattered clouds,0.0,0.0
67,Upernavik,GL,2020-05-10 20:47:50,72.79,-56.15,18.12,87,0,12.95,clear sky,0.0,0.0
68,Barrow,US,2020-05-10 20:47:50,71.29,-156.79,28.4,86,1,5.82,clear sky,0.0,0.0
69,Tiksi,RU,2020-05-10 20:47:51,71.69,128.87,25.93,97,99,5.73,overcast clouds,0.0,0.0
70,East London,ZA,2020-05-10 20:47:51,-33.02,27.91,73.0,35,0,7.34,clear sky,0.0,0.0
71,Saldanha,ZA,2020-05-10 20:47:51,-33.01,17.94,59.0,72,0,5.82,clear sky,0.0,0.0
72,Bandarbeyla,SO,2020-05-10 20:47:51,9.49,50.81,82.44,76,100,11.36,overcast clouds,0.0,0.0
73,San Fernando,PH,2020-05-10 20:47:51,15.03,120.69,78.8,88,75,2.24,broken clouds,0.0,0.0
74,Saint-Raphael,HT,2020-05-10 20:47:51,19.43,-72.2,86.0,66,75,11.41,broken clouds,0.0,0.0
75,Mahibadhoo,MV,2020-05-10 20:47:51,3.78,72.97,85.89,76,100,14.12,overcast clouds,0.0,0.0
76,Chernyshevskiy,RU,2020-05-10 20:47:51,63.01,112.47,26.33,98,100,11.61,light snow,0.0,0.0
77,Avarua,CK,2020-05-10 20:47:40,-21.21,-159.78,80.6,78,99,16.11,overcast clouds,0.0,0.0
78,Huarmey,PE,2020-05-10 20:47:51,-10.07,-78.15,72.19,71,5,9.24,clear sky,0.0,0.0
79,Kashi,CN,2020-05-10 20:47:52,39.45,75.98,55.4,82,40,8.95,scattered clouds,0.0,0.0
80,Cidreira,BR,2020-05-10 20:47:52,-30.18,-50.21,66.67,71,100,10.36,overcast clouds,0.0,0.0
81,Wanning,CN,2020-05-10 20:47:52,18.8,110.4,79.2,93,67,9.15,broken clouds,0.0,0.0
82,Bilma,NE,2020-05-10 20:47:52,18.69,12.92,88.25,10,0,9.66,clear sky,0.0,0.0
83,San Patricio,MX,2020-05-10 20:47:52,19.22,-104.7,82.4,78,5,11.41,clear sky,0.0,0.0
84,Marcona,MX,2020-05-10 20:47:52,19.22,-104.7,82.4,78,5,11.41,clear sky,0.0,0.0
85,Carnarvon,AU,2020-05-10 20:47:52,-24.87,113.63,70.99,60,12,7.72,few clouds,0.0,0.0
86,Zyryanka,RU,2020-05-10 20:47:52,65.75,150.85,30.65,98,100,20.09,light snow,0.0,0.0
87,Pangnirtung,CA,2020-05-10 20:47:52,66.15,-65.71,26.6,68,90,20.8,light snow,0.0,0.0
88,Surkhakhi,RU,2020-05-10 20:47:53,43.19,44.9,46.4,100,84,4.47,broken clouds,0.0,0.0
89,Sibolga,ID,2020-05-10 20:47:53,1.74,98.78,77.83,83,100,3.15,overcast clouds,0.0,0.0
90,Souillac,MU,2020-05-10 20:47:53,-20.52,57.52,73.4,56,40,9.17,scattered clouds,0.0,0.0
91,Batagay-Alyta,RU,2020-05-10 20:47:53,67.8,130.41,21.38,94,90,5.75,overcast clouds,0.0,0.0
92,Mehamn,NO,2020-05-10 20:47:53,71.04,27.85,35.6,69,80,6.93,broken clouds,0.0,0.0
93,Camana,PE,2020-05-10 20:47:53,-16.62,-72.71,68.2,75,68,6.33,broken clouds,0.0,0.0
94,Chuy,UY,2020-05-10 20:47:53,-33.7,-53.46,65.7,71,0,7.87,clear sky,0.0,0.0
95,Praxedis Guerrero,MX,2020-05-10 20:47:54,31.37,-106.02,86.0,21,75,4.83,broken clouds,0.0,0.0
96,Port-Cartier,CA,2020-05-10 20:47:54,50.03,-66.87,44.6,39,75,20.8,broken clouds,0.0,0.0
97,Verkhnyaya Inta,RU,2020-05-10 20:47:54,65.98,60.31,34.63,97,35,1.23,scattered clouds,0.0,0.0
98,Tasiilaq,GL,2020-05-10 20:47:54,65.61,-37.64,32.0,89,0,9.17,clear sky,0.0,0.0
99,Ribeira Grande,PT,2020-05-10 20:47:54,38.52,-28.7,60.8,67,20,16.11,few clouds,0.0,0.0
100,Aripuana,BR,2020-05-10 20:47:54,-9.17,-60.63,79.79,94,93,1.79,light rain,0.0,0.0
101,Abiy Adi,BR,2020-05-10 20:47:54,-9.17,-60.63,79.79,94,93,1.79,light rain,0.0,0.0
102,Vardo,NO,2020-05-10 20:47:54,70.37,31.11,37.4,64,75,18.34,shower rain,0.0,0.0
103,Yerbogachen,RU,2020-05-10 20:47:54,61.28,108.01,30.4,91,13,9.33,few clouds,0.0,0.0
104,Georgetown,MY,2020-05-10 20:47:55,5.41,100.34,78.8,94,40,4.7,scattered clouds,0.0,0.0
105,Eyl,SO,2020-05-10 20:47:55,7.98,49.82,83.89,73,51,9.4,broken clouds,0.0,0.0
106,Rawson,AR,2020-05-10 20:47:55,-43.3,-65.1,59.47,37,86,22.08,overcast clouds,0.0,0.0
107,Baruun-Urt,MN,2020-05-10 20:47:55,46.68,113.28,46.87,55,80,19.33,broken clouds,0.0,0.0
108,Touros,BR,2020-05-10 20:44:27,-5.2,-35.46,82.4,78,20,8.05,few clouds,0.0,0.0
109,Tura,IN,2020-05-10 20:47:55,25.52,90.22,77.14,54,37,2.66,scattered clouds,0.0,0.0
110,Bredasdorp,ZA,2020-05-10 20:47:55,-34.53,20.04,60.8,87,0,3.36,clear sky,0.0,0.0
111,Canutama,BR,2020-05-10 20:47:55,-6.53,-64.38,82.09,90,100,2.28,light rain,0.0,0.0
112,Maragogi,BR,2020-05-10 20:45:28,-9.01,-35.22,77.85,82,100,9.06,overcast clouds,0.0,0.0
113,Usab,PH,2020-05-10 20:47:56,12.33,123.58,81.32,77,100,6.33,overcast clouds,0.0,0.0
114,Kihei,US,2020-05-10 20:47:56,20.79,-156.47,80.6,61,20,13.87,few clouds,0.0,0.0
115,Taoudenni,ML,2020-05-10 20:47:56,22.68,-3.98,96.53,9,35,8.46,scattered clouds,0.0,0.0
116,Orel-Izumrud,RU,2020-05-10 20:47:56,43.46,39.92,50.0,81,75,8.95,broken clouds,0.0,0.0
117,Chifeng,CN,2020-05-10 20:47:56,42.27,118.96,48.65,44,0,13.56,clear sky,0.0,0.0
118,Belmonte,BR,2020-05-10 20:47:56,-15.86,-38.88,75.2,60,20,6.93,few clouds,0.0,0.0
119,Zlobin,HR,2020-05-10 20:47:56,45.29,14.65,57.99,81,98,1.01,overcast clouds,0.0,0.0
120,Puerto Escondido,MX,2020-05-10 20:46:05,15.85,-97.07,87.8,70,5,7.67,clear sky,0.0,0.0
121,Hithadhoo,MV,2020-05-10 20:47:56,-0.6,73.08,85.35,76,98,12.73,light rain,0.0,0.0
122,Illoqqortoormiut,MV,2020-05-10 20:47:56,-0.6,73.08,85.35,76,98,12.73,light rain,0.0,0.0
123,Plainview,US,2020-05-10 20:47:56,40.78,-73.47,64.0,30,7,1.99,clear sky,0.0,0.0
124,Sao Jose Da Coroa Grande,BR,2020-05-10 20:47:57,-8.9,-35.15,78.78,80,100,9.17,overcast clouds,0.0,0.0
125,Arraial Do Cabo,BR,2020-05-10 20:47:48,-22.97,-42.03,73.4,60,0,18.34,clear sky,0.0,0.0
126,Kaa-Khem,RU,2020-05-10 20:47:57,51.68,94.73,50.95,46,9,3.74,clear sky,0.0,0.0
127,Soddy-Daisy,US,2020-05-10 20:47:57,35.24,-85.19,73.99,31,0,4.0,clear sky,0.0,0.0
128,Hamilton,US,2020-05-10 20:45:01,39.18,-84.53,59.0,67,90,21.92,moderate rain,0.0,0.0
129,Tambopata,PE,2020-05-10 20:47:57,-12.73,-69.18,87.17,58,4,1.61,clear sky,0.0,0.0
130,Kahului,US,2020-05-10 20:47:58,20.89,-156.47,80.6,61,20,13.87,few clouds,0.0,0.0
131,Rio Pomba,BR,2020-05-10 20:47:58,-21.27,-43.18,62.6,59,20,6.93,few clouds,0.0,0.0
132,Mount Vernon,US,2020-05-10 20:47:58,40.91,-73.84,64.4,18,40,16.11,scattered clouds,0.0,0.0
133,Stornoway,GB,2020-05-10 20:47:58,58.21,-6.39,39.2,60,66,9.17,broken clouds,0.0,0.0
134,Koppang,NO,2020-05-10 20:47:58,61.57,11.06,24.01,66,0,1.01,clear sky,0.0,0.0
135,Klaksvik,FO,2020-05-10 20:47:58,62.23,-6.59,33.8,55,87,11.41,overcast clouds,0.0,0.0
136,Ponta Do Sol,PT,2020-05-10 20:47:58,32.67,-17.1,68.0,68,20,2.24,few clouds,0.0,0.0
137,Maku,IR,2020-05-10 20:47:58,39.29,44.45,48.36,69,12,2.37,few clouds,0.0,0.0
138,Tarsus,TR,2020-05-10 20:47:59,36.92,34.88,64.4,100,0,2.24,clear sky,0.0,0.0
139,Macherla,IN,2020-05-10 20:47:59,16.48,79.43,84.06,55,2,6.51,clear sky,0.0,0.0
140,Souris,CA,2020-05-10 20:47:59,49.62,-100.26,44.6,39,75,17.22,broken clouds,0.0,0.0
141,Kilemary,RU,2020-05-10 20:47:59,56.78,46.87,47.16,95,18,3.96,few clouds,0.0,0.0
142,Caravelas,BR,2020-05-10 20:47:59,-17.71,-39.25,71.22,74,13,6.62,few clouds,0.0,0.0
143,Fomboni,KM,2020-05-10 20:47:59,-12.28,43.74,81.52,77,94,14.65,moderate rain,0.0,0.0
144,Cleburne,US,2020-05-10 20:44:36,32.35,-97.39,78.01,36,1,10.29,clear sky,0.0,0.0
145,Flinders,AU,2020-05-10 20:47:59,-34.58,150.86,46.99,70,0,4.0,clear sky,0.0,0.0
146,Yellowknife,CA,2020-05-10 20:48:00,62.46,-114.35,37.4,51,40,9.17,scattered clouds,0.0,0.0
147,Ust-Nera,RU,2020-05-10 20:48:00,64.57,143.2,30.56,93,100,4.09,overcast clouds,0.0,0.0
148,Baoro,CF,2020-05-10 20:48:00,5.67,15.97,71.11,80,31,2.35,scattered clouds,0.0,0.0
149,Karratha,AU,2020-05-10 20:48:00,-20.74,116.85,74.84,29,100,18.03,overcast clouds,0.0,0.0
150,Ndioum,SN,2020-05-10 20:48:00,16.51,-14.65,93.79,13,14,15.88,few clouds,0.0,0.0
151,Honningsvag,NO,2020-05-10 20:48:00,70.98,25.97,35.6,69,31,6.93,scattered clouds,0.0,0.0
152,Ostrovnoy,RU,2020-05-10 20:48:00,68.05,39.51,31.86,94,100,12.37,overcast clouds,0.0,0.0
153,Porto Novo,BJ,2020-05-10 20:48:00,6.5,2.6,78.8,88,20,3.36,few clouds,0.0,0.0
154,Nobres,BR,2020-05-10 20:48:00,-14.72,-56.33,81.16,72,67,4.23,broken clouds,0.0,0.0
155,Pisco,PE,2020-05-10 20:48:01,-13.7,-76.22,75.2,64,7,13.87,clear sky,0.0,0.0
156,Victoria,HK,2020-05-10 20:45:02,22.29,114.16,80.01,78,64,4.0,broken clouds,0.0,0.0
157,Narsaq,GL,2020-05-10 20:48:01,60.92,-46.05,53.6,68,93,11.41,overcast clouds,0.0,0.0
158,New London,US,2020-05-10 20:48:01,41.36,-72.1,60.01,47,1,17.22,clear sky,0.0,0.0
159,Mocambique,US,2020-05-10 20:48:01,41.36,-72.1,60.01,47,1,17.22,clear sky,0.0,0.0
160,Konya,TR,2020-05-10 20:48:01,38.17,32.5,51.8,62,0,9.17,clear sky,0.0,0.0
161,Palmer,US,2020-05-10 20:48:01,42.16,-72.33,61.0,30,75,20.8,broken clouds,0.0,0.0
162,Erenhot,CN,2020-05-10 20:48:01,43.65,111.98,48.0,46,78,18.57,broken clouds,0.0,0.0
163,Gualaceo,EC,2020-05-10 20:48:01,-2.9,-78.78,69.8,52,75,6.93,broken clouds,0.0,0.0
164,Hasaki,JP,2020-05-10 20:48:02,35.73,140.83,69.8,88,75,4.7,broken clouds,0.0,0.0
165,Fortuna,US,2020-05-10 20:43:12,40.6,-124.16,60.01,82,1,14.99,clear sky,0.0,0.0
166,Kapaa,US,2020-05-10 20:48:02,22.08,-159.32,78.8,65,40,13.87,scattered clouds,0.0,0.0
167,Vanino,RU,2020-05-10 20:48:02,49.09,140.25,40.08,96,100,4.59,light rain,0.0,0.0
168,Rio Gallegos,AR,2020-05-10 20:48:02,-51.62,-69.22,44.6,87,31,4.7,scattered clouds,0.0,0.0
169,Komsomolskiy,UZ,2020-05-10 20:48:02,40.43,71.72,66.2,55,0,9.17,clear sky,0.0,0.0
170,Ucluelet,CA,2020-05-10 20:48:02,48.93,-125.55,70.0,59,40,5.82,scattered clouds,0.0,0.0
171,Laguna,US,2020-05-10 20:48:02,38.42,-121.42,75.2,49,1,14.99,clear sky,0.0,0.0
172,Macomer,IT,2020-05-10 20:48:02,40.26,8.77,59.0,93,75,4.7,moderate rain,0.0,0.0
173,Codrington,AU,2020-05-10 20:48:02,-38.27,141.97,46.11,94,12,9.93,few clouds,0.0,0.0
174,Cumra,TR,2020-05-10 20:48:03,37.57,32.77,51.8,62,0,9.17,clear sky,0.0,0.0
175,Dwarka,IN,2020-05-10 20:48:03,22.24,68.97,81.25,86,0,13.76,clear sky,0.0,0.0
176,Nishihara,JP,2020-05-10 20:48:03,26.18,127.76,77.0,100,90,3.36,heavy intensity rain,0.0,0.0
177,Pontian Kecil,MY,2020-05-10 20:48:03,1.48,103.39,79.0,94,20,2.93,few clouds,0.0,0.0
178,Jiddah,MY,2020-05-10 20:48:03,1.48,103.39,79.0,94,20,2.93,few clouds,0.0,0.0
179,Barcelos,PT,2020-05-10 20:48:03,41.54,-8.62,59.0,87,40,9.17,scattered clouds,0.0,0.0
180,Bom Jesus,BR,2020-05-10 20:48:03,-9.07,-44.36,75.43,81,97,3.13,overcast clouds,0.0,0.0
181,Westport,US,2020-05-10 20:48:03,41.14,-73.36,63.0,36,1,19.46,clear sky,0.0,0.0
182,Alugan,PH,2020-05-10 20:48:04,12.22,125.48,81.41,84,100,8.72,overcast clouds,0.0,0.0
183,Kadykchan,PH,2020-05-10 20:48:04,12.22,125.48,81.41,84,100,8.72,overcast clouds,0.0,0.0
184,Cape Town,ZA,2020-05-10 20:47:51,-33.93,18.42,61.0,100,0,3.36,clear sky,0.0,0.0
185,Chapais,CA,2020-05-10 20:48:04,49.78,-74.85,32.0,98,90,18.34,light snow,0.0,0.0
186,Guozhen,CN,2020-05-10 20:48:04,34.37,107.36,54.48,41,76,3.98,broken clouds,0.0,0.0
187,Leshukonskoye,RU,2020-05-10 20:48:04,64.9,45.76,34.09,95,0,4.63,clear sky,0.0,0.0
188,Vila Franca Do Campo,PT,2020-05-10 20:48:04,37.72,-25.43,60.8,72,40,13.87,scattered clouds,0.0,0.0
189,Mount Isa,AU,2020-05-10 20:48:04,-20.73,139.5,57.2,30,0,10.29,clear sky,0.0,0.0
190,Amderma,AU,2020-05-10 20:48:04,-20.73,139.5,57.2,30,0,10.29,clear sky,0.0,0.0
191,New Norfolk,AU,2020-05-10 20:48:04,-42.78,147.06,48.99,85,73,1.99,broken clouds,0.0,0.0
192,Kribi,CM,2020-05-10 20:48:05,2.95,9.92,79.59,85,100,9.15,moderate rain,0.0,0.0
193,Santiago,CL,2020-05-10 20:46:48,-33.46,-70.65,66.2,52,0,5.82,clear sky,0.0,0.0
194,Labytnangi,RU,2020-05-10 20:48:05,66.66,66.42,32.97,96,100,2.46,light rain,0.0,0.0
195,Baie-Comeau,CA,2020-05-10 20:44:57,49.22,-68.15,42.8,41,90,18.34,overcast clouds,0.0,0.0
196,Tuburan,PH,2020-05-10 20:48:05,6.64,122.27,82.94,76,92,5.17,light rain,0.0,0.0
197,Bonthe,SL,2020-05-10 20:48:05,7.53,-12.51,80.74,82,77,8.16,broken clouds,0.0,0.0
198,Cacule,BR,2020-05-10 20:48:05,-14.5,-42.22,71.67,66,53,9.42,broken clouds,0.0,0.0
199,Raga,SS,2020-05-10 20:48:05,8.46,25.68,76.05,74,100,5.64,overcast clouds,0.0,0.0
200,Kyren,RU,2020-05-10 20:48:06,51.68,102.14,51.13,54,76,3.58,broken clouds,0.0,0.0
201,Kargasok,RU,2020-05-10 20:48:06,59.06,80.86,64.06,50,77,2.55,broken clouds,0.0,0.0
202,Havoysund,NO,2020-05-10 20:48:06,71.0,24.66,35.6,69,15,6.93,few clouds,0.0,0.0
203,Atambua,ID,2020-05-10 20:48:06,-9.11,124.89,69.94,85,17,4.99,few clouds,0.0,0.0
204,Barra Patuca,HN,2020-05-10 20:48:06,15.8,-84.28,81.25,82,100,7.63,overcast clouds,0.0,0.0
205,Assiniboia,CA,2020-05-10 20:48:06,49.63,-105.98,44.91,50,51,7.54,broken clouds,0.0,0.0
206,Vastervik,CA,2020-05-10 20:48:06,49.63,-105.98,44.91,50,51,7.54,broken clouds,0.0,0.0
207,Haines Junction,CA,2020-05-10 20:48:06,60.75,-137.51,64.13,34,0,4.09,clear sky,0.0,0.0
208,Kodinsk,RU,2020-05-10 20:48:06,58.69,99.18,41.31,65,81,1.03,broken clouds,0.0,0.0
209,Huntingdon,GB,2020-05-10 20:48:07,52.33,-0.19,44.01,65,76,11.99,broken clouds,0.0,0.0
210,Bonavista,CA,2020-05-10 20:48:07,48.65,-53.11,35.08,88,88,23.82,overcast clouds,0.0,0.0
211,Arraias,BR,2020-05-10 20:48:07,-12.93,-46.94,71.91,82,3,4.79,clear sky,0.0,0.0
212,Kholtoson,RU,2020-05-10 20:48:07,50.3,103.31,41.5,65,65,4.72,broken clouds,0.0,0.0
213,Tanout,NE,2020-05-10 20:48:07,14.97,8.89,84.0,14,33,3.4,scattered clouds,0.0,0.0
214,Bo Phloi,TH,2020-05-10 20:48:07,14.32,99.52,83.14,70,87,3.15,overcast clouds,0.0,0.0
215,Bambous Virieux,MU,2020-05-10 20:48:07,-20.34,57.76,73.4,56,40,9.17,scattered clouds,0.0,0.0
216,Krasnoarmeysk,RU,2020-05-10 20:48:07,51.02,45.7,51.01,83,0,4.0,clear sky,0.0,0.0
217,Kieta,PG,2020-05-10 20:48:08,-6.22,155.63,82.13,74,60,2.21,broken clouds,0.0,0.0
218,Walvis Bay,NA,2020-05-10 20:48:08,-22.96,14.51,76.24,32,0,10.31,clear sky,0.0,0.0
219,Loksa,EE,2020-05-10 20:48:08,59.58,25.72,55.4,50,82,6.93,broken clouds,0.0,0.0
220,Salinas,US,2020-05-10 20:47:36,36.68,-121.66,66.99,59,1,11.41,clear sky,0.0,0.0
221,Port Macquarie,AU,2020-05-10 20:48:08,-31.43,152.92,46.99,79,2,11.74,clear sky,0.0,0.0
222,Asosa,ET,2020-05-10 20:48:08,10.07,34.53,69.73,68,6,1.77,clear sky,0.0,0.0
223,Vylgort,ET,2020-05-10 20:48:08,10.07,34.53,69.73,68,6,1.77,clear sky,0.0,0.0
224,Ola,RU,2020-05-10 20:48:08,59.58,151.28,36.9,80,74,3.56,broken clouds,0.0,0.0
225,Bloomington,US,2020-05-10 20:48:09,44.84,-93.3,48.2,49,90,14.99,overcast clouds,0.0,0.0
226,Castro,BR,2020-05-10 20:48:09,-24.79,-50.01,59.45,84,0,4.38,clear sky,0.0,0.0
227,Cabo San Lucas,MX,2020-05-10 20:48:09,22.89,-109.91,90.0,30,40,4.7,scattered clouds,0.0,0.0
228,Berlevag,NO,2020-05-10 20:48:09,70.86,29.09,30.2,68,20,11.41,few clouds,0.0,0.0
229,Teya,RU,2020-05-10 20:48:09,60.38,92.63,49.32,57,73,5.12,broken clouds,0.0,0.0
230,Ilulissat,GL,2020-05-10 20:46:02,69.22,-51.1,33.8,69,100,12.75,overcast clouds,0.0,0.0
231,Mitsamiouli,KM,2020-05-10 20:48:10,-11.38,43.28,81.43,76,2,3.31,light rain,0.0,0.0
232,Coihaique,CL,2020-05-10 20:48:04,-45.58,-72.07,48.2,66,40,2.24,scattered clouds,0.0,0.0
233,Quatre Cocos,MU,2020-05-10 20:48:10,-20.21,57.76,73.4,56,40,9.17,scattered clouds,0.0,0.0
234,Palabuhanratu,MU,2020-05-10 20:48:10,-20.21,57.76,73.4,56,40,9.17,scattered clouds,0.0,0.0
235,Mugur-Aksy,RU,2020-05-10 20:48:10,50.35,90.5,42.64,52,0,2.66,clear sky,0.0,0.0
236,Zhigansk,RU,2020-05-10 20:48:10,66.77,123.37,23.27,96,0,17.69,clear sky,0.0,0.0
237,Bethel,US,2020-05-10 20:48:10,41.37,-73.41,63.0,26,20,14.99,few clouds,0.0,0.0
238,Shingu,JP,2020-05-10 20:48:10,33.73,135.98,63.55,91,86,4.72,overcast clouds,0.0,0.0
239,Stokmarknes,NO,2020-05-10 20:48:11,68.56,14.91,32.0,90,40,6.93,scattered clouds,0.0,0.0
240,Attawapiskat,NO,2020-05-10 20:48:11,68.56,14.91,32.0,90,40,6.93,scattered clouds,0.0,0.0
241,College,US,2020-05-10 20:48:11,64.86,-147.8,75.99,25,20,11.41,few clouds,0.0,0.0
242,Mount Gambier,AU,2020-05-10 20:48:11,-37.83,140.77,46.4,93,10,10.29,clear sky,0.0,0.0
243,Katsuura,JP,2020-05-10 20:48:11,35.13,140.3,69.01,92,79,18.59,broken clouds,0.0,0.0
244,Bukan,IR,2020-05-10 20:48:11,36.52,46.21,49.89,60,16,7.29,few clouds,0.0,0.0
245,Pueblo Rico,CO,2020-05-10 20:48:11,5.24,-76.04,73.4,82,100,3.96,light rain,0.0,0.0
246,Kokopo,PG,2020-05-10 20:48:11,-4.35,152.26,80.15,77,100,4.72,overcast clouds,0.0,0.0
247,High Level,CA,2020-05-10 20:48:11,58.52,-117.14,50.0,21,20,8.05,few clouds,0.0,0.0
248,Lompoc,US,2020-05-10 20:48:12,34.64,-120.46,60.01,87,90,9.17,overcast clouds,0.0,0.0
249,Port Hardy,CA,2020-05-10 20:48:12,50.7,-127.42,69.8,37,40,4.7,scattered clouds,0.0,0.0
250,Tokonou,GN,2020-05-10 20:48:12,9.65,-9.78,75.65,87,94,5.37,light rain,0.0,0.0
251,Zyryanovsk,KZ,2020-05-10 20:48:12,49.74,84.27,56.26,47,56,0.89,broken clouds,0.0,0.0
252,Murgab,TM,2020-05-10 20:48:12,37.5,61.97,73.4,53,40,6.93,scattered clouds,0.0,0.0
253,Bacolod,PH,2020-05-10 20:48:12,10.67,122.95,80.76,75,99,3.44,overcast clouds,0.0,0.0
254,Pacific Grove,US,2020-05-10 20:48:12,36.62,-121.92,66.99,59,20,9.17,few clouds,0.0,0.0
255,Kayes,ML,2020-05-10 20:48:13,14.0,-11.0,94.28,24,28,5.75,scattered clouds,0.0,0.0
256,Mindelo,CV,2020-05-10 20:48:13,16.89,-24.98,75.2,69,75,26.4,broken clouds,0.0,0.0
257,Naivasha,KE,2020-05-10 20:48:13,-0.72,36.44,57.0,93,99,5.06,light rain,0.0,0.0
258,Ahuimanu,US,2020-05-10 20:48:13,21.44,-157.84,87.8,48,1,11.41,clear sky,0.0,0.0
259,Congonhas,BR,2020-05-10 20:48:13,-20.5,-43.86,68.0,52,0,8.05,clear sky,0.0,0.0
260,Kautokeino,NO,2020-05-10 20:48:13,69.01,23.04,26.1,97,100,17.96,light snow,0.0,0.0
261,Cururupu,BR,2020-05-10 20:48:13,-1.83,-44.87,78.76,82,22,3.85,few clouds,0.0,0.0
262,Ponta Delgada,PT,2020-05-10 20:48:13,37.73,-25.67,60.8,72,40,13.87,scattered clouds,0.0,0.0
263,Sitka,US,2020-05-10 20:48:13,57.05,-135.33,69.8,28,40,10.29,scattered clouds,0.0,0.0
264,Srednekolymsk,RU,2020-05-10 20:48:13,67.45,153.68,33.37,93,81,11.65,broken clouds,0.0,0.0
265,Xai-Xai,MZ,2020-05-10 20:48:14,-25.05,33.64,65.19,75,0,3.22,clear sky,0.0,0.0
266,Artigas,UY,2020-05-10 20:48:14,-30.4,-56.47,68.36,73,54,8.25,broken clouds,0.0,0.0
267,Grand Gaube,MU,2020-05-10 20:48:14,-20.01,57.66,69.01,72,31,1.99,scattered clouds,0.0,0.0
268,Takoradi,GH,2020-05-10 20:48:14,4.88,-1.76,79.59,87,100,9.22,light rain,0.0,0.0
269,Aden,YE,2020-05-10 20:44:12,12.78,45.04,87.42,59,51,8.72,broken clouds,0.0,0.0
270,Mwense,ZM,2020-05-10 20:48:14,-10.38,28.7,64.85,74,95,6.2,overcast clouds,0.0,0.0
271,Olafsvik,IS,2020-05-10 20:48:14,64.89,-23.71,41.83,75,16,14.61,few clouds,0.0,0.0
272,Bubaque,GW,2020-05-10 20:48:14,11.28,-15.83,78.21,76,37,13.24,scattered clouds,0.0,0.0
273,Foz,ES,2020-05-10 20:48:14,43.57,-7.25,55.0,97,30,1.99,scattered clouds,0.0,0.0
274,Tamandare,BR,2020-05-10 20:48:15,-8.76,-35.1,79.14,78,100,8.68,overcast clouds,0.0,0.0
275,Lollar,DE,2020-05-10 20:48:15,50.65,8.71,60.01,83,71,9.71,broken clouds,0.0,0.0
276,Piran,SI,2020-05-10 20:48:15,45.53,13.57,62.6,77,68,11.05,broken clouds,0.0,0.0
277,Vila Velha,BR,2020-05-10 20:48:15,-20.33,-40.29,75.2,60,20,5.82,few clouds,0.0,0.0
278,Casablanca,MA,2020-05-10 20:48:15,33.59,-7.62,66.0,72,20,9.17,few clouds,0.0,0.0
279,Amos,CA,2020-05-10 20:48:15,48.57,-78.12,35.6,64,90,10.29,light snow,0.0,0.0
280,Tarudant,CA,2020-05-10 20:48:15,48.57,-78.12,35.6,64,90,10.29,light snow,0.0,0.0
281,Urumqi,CN,2020-05-10 20:48:15,43.8,87.6,73.4,10,66,8.95,broken clouds,0.0,0.0
282,Chipinge,ZW,2020-05-10 20:48:15,-20.19,32.62,53.6,85,31,3.53,scattered clouds,0.0,0.0
283,Tocopilla,CL,2020-05-10 20:48:15,-22.09,-70.2,68.29,59,37,7.85,scattered clouds,0.0,0.0
284,Melendugno,IT,2020-05-10 20:48:16,40.27,18.34,59.0,87,40,8.05,scattered clouds,0.0,0.0
285,Sisimiut,GL,2020-05-10 20:48:16,66.94,-53.67,41.74,67,100,1.9,overcast clouds,0.0,0.0
286,Salalah,OM,2020-05-10 20:47:57,17.02,54.09,82.4,88,20,3.36,few clouds,0.0,0.0
287,Hami,CN,2020-05-10 20:48:16,42.8,93.45,59.25,27,0,9.17,clear sky,0.0,0.0
288,Sorland,NO,2020-05-10 20:48:16,67.67,12.69,32.0,79,90,5.82,shower snow,0.0,0.0
289,Jacareacanga,BR,2020-05-10 20:48:16,-6.22,-57.75,80.64,93,73,1.79,moderate rain,0.0,0.0
290,Lagoa,PT,2020-05-10 20:48:16,39.05,-27.98,58.59,71,85,25.48,overcast clouds,0.0,0.0
291,Norman Wells,CA,2020-05-10 20:48:17,65.28,-126.83,51.8,43,20,14.99,few clouds,0.0,0.0
292,Darnah,LY,2020-05-10 20:48:17,32.77,22.64,69.46,48,0,10.0,clear sky,0.0,0.0
293,Umba,RU,2020-05-10 20:48:17,66.69,34.34,36.12,82,99,18.86,overcast clouds,0.0,0.0
294,Palanpur,IN,2020-05-10 20:48:17,24.17,72.43,78.6,60,0,3.91,clear sky,0.0,0.0
295,Castanheira De Pera,PT,2020-05-10 20:48:17,40.01,-8.21,61.0,90,100,3.4,overcast clouds,0.0,0.0
296,Fethiye,TR,2020-05-10 20:48:17,36.62,29.12,62.6,82,33,2.24,scattered clouds,0.0,0.0
297,Talara,PE,2020-05-10 20:48:17,-4.58,-81.27,73.67,76,72,14.32,broken clouds,0.0,0.0
298,Severo-Kurilsk,RU,2020-05-10 20:48:17,50.68,156.12,34.0,88,50,6.24,scattered clouds,0.0,0.0
299,Mogocha,RU,2020-05-10 20:48:17,53.73,119.77,35.91,92,100,5.57,overcast clouds,0.0,0.0
300,Antalaha,MG,2020-05-10 20:48:18,-14.9,50.28,72.95,83,36,8.3,scattered clouds,0.0,0.0
301,Mudon,MM,2020-05-10 20:48:18,16.26,97.72,82.31,81,81,1.79,broken clouds,0.0,0.0
302,Areosa,PT,2020-05-10 20:48:18,41.72,-8.86,60.01,87,40,9.17,scattered clouds,0.0,0.0
303,Wa,PT,2020-05-10 20:48:18,41.72,-8.86,60.01,87,40,9.17,scattered clouds,0.0,0.0
304,Bartoszyce,PL,2020-05-10 20:48:18,54.25,20.81,55.22,84,100,12.39,overcast clouds,0.0,0.0
305,Rio Grande,BR,2020-05-10 20:48:18,-32.03,-52.1,80.6,36,40,5.82,scattered clouds,0.0,0.0
306,Thunder Bay,CA,2020-05-10 20:47:55,48.4,-89.32,39.99,64,90,8.05,light snow,0.0,0.0
307,Kichera,RU,2020-05-10 20:48:19,55.94,110.1,28.35,91,7,6.67,clear sky,0.0,0.0
308,Niteroi,BR,2020-05-10 20:45:08,-22.88,-43.1,77.0,60,20,6.93,few clouds,0.0,0.0
309,Ixtapa,MX,2020-05-10 20:48:19,20.7,-105.2,84.2,62,40,9.17,scattered clouds,0.0,0.0
310,Khonuu,MX,2020-05-10 20:48:19,20.7,-105.2,84.2,62,40,9.17,scattered clouds,0.0,0.0
311,Milos,GR,2020-05-10 20:48:19,36.75,24.43,64.4,63,46,6.93,light rain,0.0,0.0
312,Bathsheba,BB,2020-05-10 20:48:19,13.22,-59.52,84.2,66,40,19.46,scattered clouds,0.0,0.0
313,Butaritari,KI,2020-05-10 20:48:19,3.07,172.79,83.23,78,17,9.04,few clouds,0.0,0.0
314,Axim,GH,2020-05-10 20:48:19,4.87,-2.24,79.52,87,100,6.87,moderate rain,0.0,0.0
315,Alihe,CN,2020-05-10 20:48:19,50.57,123.72,41.32,78,100,0.54,light rain,0.0,0.0
316,Yingzhong,CN,2020-05-10 20:48:19,50.57,123.72,41.32,78,100,0.54,light rain,0.0,0.0
317,Brindisi,IT,2020-05-10 20:48:20,40.58,17.67,62.01,87,0,8.05,clear sky,0.0,0.0
318,Cabedelo,BR,2020-05-10 20:48:20,-6.98,-34.83,82.4,78,20,10.29,few clouds,0.0,0.0
319,Kesova Gora,RU,2020-05-10 20:48:20,57.58,37.29,43.32,67,0,9.17,clear sky,0.0,0.0
320,North Platte,US,2020-05-10 20:48:20,41.12,-100.77,55.4,37,90,5.82,overcast clouds,0.0,0.0
321,Camacha,PT,2020-05-10 20:46:39,33.08,-16.33,66.2,82,40,19.46,scattered clouds,0.0,0.0
322,Cherskiy,RU,2020-05-10 20:48:20,68.75,161.3,37.78,77,9,18.61,clear sky,0.0,0.0
323,Havre-Saint-Pierre,CA,2020-05-10 20:44:03,50.23,-63.6,39.2,64,1,32.21,clear sky,0.0,0.0
324,Poum,NC,2020-05-10 20:48:21,-20.23,164.02,74.64,74,6,7.87,clear sky,0.0,0.0
325,Labuhan,ID,2020-05-10 20:48:21,-6.88,112.21,78.76,88,67,8.63,light rain,0.0,0.0
326,Yinchuan,CN,2020-05-10 20:48:21,38.47,106.27,44.01,22,0,1.01,clear sky,0.0,0.0
327,Half Moon Bay,US,2020-05-10 20:47:23,37.46,-122.43,73.0,72,1,8.05,clear sky,0.0,0.0
328,Alotau,US,2020-05-10 20:47:23,37.46,-122.43,73.0,72,1,8.05,clear sky,0.0,0.0
329,Karpathos,GR,2020-05-10 20:48:21,35.51,27.21,64.4,68,52,8.05,broken clouds,0.0,0.0
330,Portland,US,2020-05-10 20:43:49,45.52,-122.68,84.99,26,75,12.75,broken clouds,0.0,0.0
331,Trairi,BR,2020-05-10 20:48:21,-3.28,-39.27,77.25,83,100,4.23,light rain,0.0,0.0
332,Monmouth,US,2020-05-10 20:48:22,40.3,-74.17,64.0,25,1,11.41,clear sky,0.0,0.0
333,Tevaitoa,PF,2020-05-10 20:48:22,-16.78,-151.5,82.15,79,92,12.21,overcast clouds,0.0,0.0
334,Luderitz,NA,2020-05-10 20:48:22,-26.65,15.16,73.4,33,0,6.93,clear sky,0.0,0.0
335,Rundu,NA,2020-05-10 20:48:22,-17.93,19.77,68.0,49,91,5.82,overcast clouds,0.0,0.0
336,Wulanhaote,NA,2020-05-10 20:48:22,-17.93,19.77,68.0,49,91,5.82,overcast clouds,0.0,0.0
337,Paucartambo,NA,2020-05-10 20:48:22,-17.93,19.77,68.0,49,91,5.82,overcast clouds,0.0,0.0
338,Alizai,PK,2020-05-10 20:48:22,33.54,70.35,74.46,52,99,3.51,overcast clouds,0.0,0.0
339,Kinlochleven,GB,2020-05-10 20:48:23,56.71,-4.97,37.99,69,14,5.99,few clouds,0.0,0.0
340,Baglung,NP,2020-05-10 20:48:23,28.27,83.59,64.47,54,4,5.66,clear sky,0.0,0.0
341,Oistins,BB,2020-05-10 20:48:23,13.07,-59.53,84.2,66,40,19.46,scattered clouds,0.0,0.0
342,Beloha,MG,2020-05-10 20:48:23,-25.17,45.05,64.87,81,0,12.73,clear sky,0.0,0.0
343,Verkhnevilyuysk,RU,2020-05-10 20:48:23,63.45,120.32,28.49,92,0,4.63,clear sky,0.0,0.0
344,Rodrigues Alves,BR,2020-05-10 20:48:23,-7.74,-72.65,84.6,66,67,1.83,broken clouds,0.0,0.0
345,Verkh-Usugli,RU,2020-05-10 20:48:23,52.7,115.17,35.85,75,31,11.12,scattered clouds,0.0,0.0
346,Praya,CV,2020-05-10 20:48:23,14.92,-23.51,75.2,69,20,16.11,few clouds,0.0,0.0
347,Port Lincoln,AU,2020-05-10 20:48:24,-34.73,135.87,53.44,70,0,8.77,clear sky,0.0,0.0
348,Davila,PH,2020-05-10 20:48:24,18.47,120.58,81.19,77,30,9.19,scattered clouds,0.0,0.0
349,Inhambane,MZ,2020-05-10 20:48:24,-23.86,35.38,69.06,77,20,7.54,few clouds,0.0,0.0
350,Solnechnyy,RU,2020-05-10 20:48:24,50.72,136.63,44.01,85,100,8.32,overcast clouds,0.0,0.0
351,Macapa,BR,2020-05-10 20:48:24,0.04,-51.07,86.0,79,40,6.93,scattered clouds,0.0,0.0
352,Saint George,US,2020-05-10 20:48:25,37.1,-113.58,91.0,14,1,8.05,clear sky,0.0,0.0
353,Santa Ana,US,2020-05-10 20:48:25,33.75,-117.87,78.01,57,75,10.29,broken clouds,0.0,0.0
354,Solovetskiy,US,2020-05-10 20:48:25,33.75,-117.87,78.01,57,75,10.29,broken clouds,0.0,0.0
355,Nuuk,GL,2020-05-10 20:48:25,64.18,-51.72,41.0,80,100,14.99,overcast clouds,0.0,0.0
356,Liwale,TZ,2020-05-10 20:48:25,-9.77,37.93,67.66,76,7,3.6,clear sky,0.0,0.0
357,Inta,RU,2020-05-10 20:48:25,66.03,60.17,34.03,96,27,0.89,scattered clouds,0.0,0.0
358,Visby,SE,2020-05-10 20:47:30,57.64,18.3,53.01,81,100,12.75,light intensity drizzle,0.0,0.0
359,Atar,MR,2020-05-10 20:48:25,20.52,-13.05,87.01,16,3,10.42,clear sky,0.0,0.0
360,Muzhi,RU,2020-05-10 20:48:26,65.37,64.67,40.3,92,94,8.7,overcast clouds,0.0,0.0
361,La Ronge,CA,2020-05-10 20:48:26,55.1,-105.28,39.2,32,75,6.93,broken clouds,0.0,0.0
362,Bengkulu,ID,2020-05-10 20:48:26,-3.8,102.27,76.05,90,100,3.78,overcast clouds,0.0,0.0
363,Goma,CD,2020-05-10 20:48:26,-1.68,29.22,64.06,80,92,3.49,overcast clouds,0.0,0.0
364,Namatanai,PG,2020-05-10 20:48:26,-3.67,152.43,81.88,76,89,6.69,overcast clouds,0.0,0.0
365,Kattivakkam,IN,2020-05-10 20:48:26,13.22,80.32,87.01,79,20,3.36,few clouds,0.0,0.0
366,Tiznit,MA,2020-05-10 20:48:26,29.58,-9.5,58.91,82,59,11.45,broken clouds,0.0,0.0
367,Naron,ES,2020-05-10 20:48:27,43.52,-8.15,60.01,87,20,1.12,few clouds,0.0,0.0
368,Faanui,PF,2020-05-10 20:48:27,-16.48,-151.75,81.21,81,100,12.46,light rain,0.0,0.0
369,George Town,MY,2020-05-10 20:48:27,5.41,100.34,78.8,94,40,4.7,scattered clouds,0.0,0.0
370,Kavieng,PG,2020-05-10 20:48:27,-2.57,150.8,83.8,80,19,11.16,few clouds,0.0,0.0
371,Thompson,CA,2020-05-10 20:45:30,55.74,-97.86,30.2,36,5,12.75,clear sky,0.0,0.0
372,Takhli,TH,2020-05-10 20:48:27,15.26,100.34,87.01,72,93,6.76,overcast clouds,0.0,0.0
373,Inverness,GB,2020-05-10 20:44:01,57.48,-4.22,39.2,69,86,11.41,overcast clouds,0.0,0.0
374,Mujiayingzi,CN,2020-05-10 20:48:28,42.12,118.78,46.58,47,0,12.41,clear sky,0.0,0.0
375,Parrita,CR,2020-05-10 20:48:28,9.52,-84.32,77.0,78,75,11.41,thunderstorm,0.0,0.0
376,Riyadh,SA,2020-05-10 20:45:07,24.69,46.72,89.6,25,94,8.05,overcast clouds,0.0,0.0
377,Krasnovishersk,RU,2020-05-10 20:48:28,60.41,57.08,55.31,90,99,3.38,light rain,0.0,0.0
378,Goba,ET,2020-05-10 20:48:28,7.02,39.98,51.49,91,82,1.63,light rain,0.0,0.0
379,Palekh,RU,2020-05-10 20:48:28,56.8,41.86,48.7,96,99,3.71,overcast clouds,0.0,0.0
380,Yangjiang,CN,2020-05-10 20:48:28,21.85,111.97,79.14,92,81,2.57,broken clouds,0.0,0.0
381,Emerald,AU,2020-05-10 20:48:28,-23.53,148.17,59.0,41,40,13.87,scattered clouds,0.0,0.0
382,Ulundurpettai,AU,2020-05-10 20:48:28,-23.53,148.17,59.0,41,40,13.87,scattered clouds,0.0,0.0
383,Porbandar,IN,2020-05-10 20:48:29,21.64,69.61,80.56,86,0,9.51,clear sky,0.0,0.0
384,Phan Thiet,VN,2020-05-10 20:48:29,10.93,108.1,77.04,85,77,3.83,broken clouds,0.0,0.0
385,Ezhou,CN,2020-05-10 20:48:29,30.4,114.83,65.19,74,0,0.6,clear sky,0.0,0.0
386,Rayagada,IN,2020-05-10 20:48:29,19.17,83.42,82.8,45,23,2.44,few clouds,0.0,0.0
387,Dryden,CA,2020-05-10 20:48:29,49.78,-92.75,42.8,18,1,14.99,clear sky,0.0,0.0
388,Sanford,US,2020-05-10 20:46:14,28.8,-81.27,82.4,57,75,10.29,broken clouds,0.0,0.0
389,Grenaa,DK,2020-05-10 20:48:29,56.42,10.88,46.4,61,47,8.05,scattered clouds,0.0,0.0
390,Malanville,BJ,2020-05-10 20:48:30,11.87,3.39,81.61,64,62,27.38,light rain,0.0,0.0
391,Honggang,CN,2020-05-10 20:48:30,46.47,124.87,47.41,64,3,8.81,clear sky,0.0,0.0
392,Floresta,BR,2020-05-10 20:48:30,-8.6,-38.57,75.74,78,100,13.18,light rain,0.0,0.0
393,San Cristobal,VE,2020-05-10 20:44:25,7.77,-72.22,102.2,24,20,16.11,few clouds,0.0,0.0
394,El Alto,PE,2020-05-10 20:48:30,-4.27,-81.21,74.12,74,89,14.18,overcast clouds,0.0,0.0
395,Brasileia,BR,2020-05-10 20:48:30,-11.02,-68.75,89.6,59,40,4.7,scattered clouds,0.0,0.0
396,Maceio,BR,2020-05-10 20:48:30,-9.67,-35.74,77.0,94,75,3.36,broken clouds,0.0,0.0
397,Sechura,PE,2020-05-10 20:48:30,-5.56,-80.82,79.23,60,60,13.85,broken clouds,0.0,0.0
398,Pocatello,US,2020-05-10 20:48:30,42.87,-112.45,75.99,22,1,10.29,clear sky,0.0,0.0
399,Airai,TL,2020-05-10 20:48:31,-8.93,125.41,56.52,97,24,2.93,few clouds,0.0,0.0
400,Tuatapere,NZ,2020-05-10 20:48:31,-46.13,167.68,51.93,78,100,6.91,overcast clouds,0.0,0.0
401,Panama City,PA,2020-05-10 20:43:37,8.99,-79.52,93.2,66,40,18.34,scattered clouds,0.0,0.0
402,Cayenne,GF,2020-05-10 20:48:31,4.93,-52.33,82.4,78,96,10.29,light rain,0.0,0.0
403,Torbay,CA,2020-05-10 20:48:31,47.67,-52.73,39.0,86,90,36.91,light intensity shower rain,0.0,0.0
404,Tsienyane,CA,2020-05-10 20:48:31,47.67,-52.73,39.0,86,90,36.91,light intensity shower rain,0.0,0.0
405,Beypur,CA,2020-05-10 20:48:31,47.67,-52.73,39.0,86,90,36.91,light intensity shower rain,0.0,0.0
406,Manuk Mangkaw,PH,2020-05-10 20:48:31,4.8,119.85,84.29,71,100,2.24,overcast clouds,0.0,0.0
407,Kalawit,PH,2020-05-10 20:48:31,8.07,122.52,79.74,80,100,2.37,overcast clouds,0.0,0.0
408,Kovdor,RU,2020-05-10 20:48:32,67.57,30.48,35.85,97,100,9.13,overcast clouds,0.0,0.0
409,San Quintin,MX,2020-05-10 20:48:32,30.48,-115.95,68.13,69,26,10.58,scattered clouds,0.0,0.0
410,Changying,CN,2020-05-10 20:48:32,52.87,123.32,33.82,88,100,3.78,overcast clouds,0.0,0.0
411,Thessalon,CA,2020-05-10 20:48:32,46.25,-83.57,44.6,48,1,6.93,clear sky,0.0,0.0
412,Iguape,BR,2020-05-10 20:48:32,-24.71,-47.56,70.3,75,0,11.72,clear sky,0.0,0.0
413,Paamiut,GL,2020-05-10 20:48:32,61.99,-49.67,44.53,71,65,24.94,broken clouds,0.0,0.0
414,Minden,DE,2020-05-10 20:47:05,52.28,8.92,51.8,76,100,11.41,light rain,0.0,0.0
415,Pleasanton,US,2020-05-10 20:46:03,37.66,-121.87,75.99,43,1,14.99,clear sky,0.0,0.0
416,Lodja,CD,2020-05-10 20:48:32,-3.48,23.43,73.38,82,89,1.3,overcast clouds,0.0,0.0
417,Margate,GB,2020-05-10 20:48:33,51.38,1.39,48.0,73,100,33.53,overcast clouds,0.0,0.0
418,Baykit,RU,2020-05-10 20:48:33,61.67,96.37,42.06,63,74,4.0,broken clouds,0.0,0.0
419,Tumannyy,RU,2020-05-10 20:48:33,61.67,96.37,42.06,63,74,4.0,broken clouds,0.0,0.0
420,Nhulunbuy,AU,2020-05-10 20:48:33,-12.23,136.77,80.6,65,100,10.29,overcast clouds,0.0,0.0
421,Impfondo,CG,2020-05-10 20:48:33,1.64,18.07,73.74,94,97,4.45,overcast clouds,0.0,0.0
422,Marawi,PH,2020-05-10 20:48:33,8.0,124.29,78.01,89,30,5.01,scattered clouds,0.0,0.0
423,Slavsk,RU,2020-05-10 20:48:34,55.04,21.68,52.23,84,100,8.66,overcast clouds,0.0,0.0
424,Kamenka,RU,2020-05-10 20:48:34,51.32,42.77,46.99,91,100,13.0,light rain,0.0,0.0
425,Iisalmi,FI,2020-05-10 20:48:34,63.56,27.19,51.8,32,100,18.34,light rain,0.0,0.0
426,Geraldton,AU,2020-05-10 20:48:34,-28.77,114.6,53.6,76,0,1.12,clear sky,0.0,0.0
427,Korhogo,CI,2020-05-10 20:48:34,9.45,-5.63,85.66,56,93,5.48,light rain,0.0,0.0
428,Lokosovo,RU,2020-05-10 20:48:34,61.13,74.82,62.55,47,100,6.96,overcast clouds,0.0,0.0
429,Opuwo,NA,2020-05-10 20:48:34,-18.06,13.84,70.65,39,63,8.03,broken clouds,0.0,0.0
430,Kruisfontein,ZA,2020-05-10 20:48:34,-34.0,24.73,62.26,39,0,2.91,clear sky,0.0,0.0
431,Indramayu,ID,2020-05-10 20:48:34,-6.33,108.32,80.1,81,77,5.41,broken clouds,0.0,0.0
432,Guerrero Negro,MX,2020-05-10 20:48:35,27.98,-114.06,73.17,53,72,16.42,broken clouds,0.0,0.0
433,Hervey Bay,AU,2020-05-10 20:48:35,-25.3,152.85,59.0,57,34,5.99,scattered clouds,0.0,0.0
434,Broome,US,2020-05-10 20:48:35,42.25,-75.83,59.0,32,90,13.87,overcast clouds,0.0,0.0
435,Maneadero,MX,2020-05-10 20:48:35,31.72,-116.57,70.0,78,19,3.0,few clouds,0.0,0.0
436,Genhe,CN,2020-05-10 20:48:35,50.78,121.52,41.34,88,100,1.7,light rain,0.0,0.0
437,Hirara,JP,2020-05-10 20:48:35,24.8,125.28,79.32,88,44,9.31,light rain,0.0,0.0
438,Gravdal,NO,2020-05-10 20:48:35,68.12,13.5,32.0,80,90,5.82,shower snow,0.0,0.0
439,Islaz,RO,2020-05-10 20:48:36,43.73,24.75,69.8,46,75,2.64,broken clouds,0.0,0.0
440,Manyana,BW,2020-05-10 20:48:36,-23.4,21.72,59.77,50,0,5.41,clear sky,0.0,0.0
441,Goteborg,BW,2020-05-10 20:48:36,-23.4,21.72,59.77,50,0,5.41,clear sky,0.0,0.0
442,Grand Centre,BW,2020-05-10 20:48:36,-23.4,21.72,59.77,50,0,5.41,clear sky,0.0,0.0
443,Sao Joao Da Barra,BR,2020-05-10 20:48:36,-21.64,-41.05,75.2,57,0,11.41,clear sky,0.0,0.0
444,Abu Samrah,SY,2020-05-10 20:48:36,35.3,37.18,61.27,57,0,6.64,clear sky,0.0,0.0
445,Madaoua,NE,2020-05-10 20:48:36,14.07,5.96,88.3,45,70,11.7,broken clouds,0.0,0.0
446,Dongying,CN,2020-05-10 20:48:36,37.46,118.49,62.85,39,94,9.13,overcast clouds,0.0,0.0
447,Pavlodar,KZ,2020-05-10 20:48:36,52.3,76.95,62.6,55,80,6.71,broken clouds,0.0,0.0
448,Dongsheng,CN,2020-05-10 20:48:37,39.82,109.98,41.95,55,0,15.88,clear sky,0.0,0.0
449,Hay River,CA,2020-05-10 20:48:37,60.82,-115.8,44.6,48,20,16.11,few clouds,0.0,0.0
450,Iquique,CL,2020-05-10 20:48:37,-20.22,-70.14,68.0,64,75,11.41,broken clouds,0.0,0.0
451,Piterka,RU,2020-05-10 20:48:37,50.68,47.45,50.32,77,0,9.73,clear sky,0.0,0.0
452,Vestmannaeyjar,IS,2020-05-10 20:48:37,63.44,-20.27,43.27,69,44,14.76,scattered clouds,0.0,0.0
453,Upington,ZA,2020-05-10 20:48:37,-28.45,21.26,64.4,26,0,8.05,clear sky,0.0,0.0
454,Jedovnice,CZ,2020-05-10 20:48:37,49.34,16.76,61.0,83,55,2.71,broken clouds,0.0,0.0
455,Klichka,RU,2020-05-10 20:48:38,50.45,118.0,42.03,66,70,16.8,light rain,0.0,0.0
456,Nelson Bay,AU,2020-05-10 20:48:38,-32.72,152.15,46.0,75,32,8.05,scattered clouds,0.0,0.0
457,Xining,CN,2020-05-10 20:48:38,36.62,101.77,36.45,78,45,0.96,scattered clouds,0.0,0.0
458,Scottsbluff,US,2020-05-10 20:48:38,41.87,-103.67,60.8,26,75,9.17,broken clouds,0.0,0.0
459,Pinawa,CA,2020-05-10 20:48:38,50.15,-95.88,46.02,43,94,12.01,overcast clouds,0.0,0.0
460,Artyk,CA,2020-05-10 20:48:38,50.15,-95.88,46.02,43,94,12.01,overcast clouds,0.0,0.0
461,Olinda,BR,2020-05-10 20:48:38,-8.01,-34.86,84.2,70,40,9.17,shower rain,0.0,0.0
462,Chicama,PE,2020-05-10 20:48:38,-7.84,-79.15,75.72,63,66,9.1,broken clouds,0.0,0.0
463,Umzimvubu,PE,2020-05-10 20:48:38,-7.84,-79.15,75.72,63,66,9.1,broken clouds,0.0,0.0
464,Adrar,MR,2020-05-10 20:48:38,20.5,-10.07,89.73,12,49,9.4,scattered clouds,0.0,0.0
465,Sorvag,MR,2020-05-10 20:48:38,20.5,-10.07,89.73,12,49,9.4,scattered clouds,0.0,0.0
466,El Dorado,US,2020-05-10 20:48:39,33.21,-92.67,73.4,40,1,5.82,clear sky,0.0,0.0
467,Saint Anthony,US,2020-05-10 20:48:39,45.02,-93.22,48.2,45,90,13.87,overcast clouds,0.0,0.0
468,Cap Malheureux,MU,2020-05-10 20:48:39,-19.98,57.61,69.01,72,31,1.99,scattered clouds,0.0,0.0
469,Segou,ML,2020-05-10 20:48:39,13.43,-6.22,90.72,36,92,3.58,overcast clouds,0.0,0.0
470,Marsabit,KE,2020-05-10 20:48:39,2.33,37.99,65.64,91,55,18.1,light rain,0.0,0.0
471,Okhotsk,RU,2020-05-10 20:48:40,59.38,143.3,37.99,76,91,11.77,overcast clouds,0.0,0.0
472,Sangar,RU,2020-05-10 20:48:40,63.92,127.47,29.43,95,100,4.12,overcast clouds,0.0,0.0
473,Mar Del Plata,AR,2020-05-10 20:45:35,-38.0,-57.56,69.8,46,60,6.93,broken clouds,0.0,0.0
474,Eslamshahr,IR,2020-05-10 20:48:40,35.56,51.23,75.2,16,20,13.87,few clouds,0.0,0.0
475,Ipero,BR,2020-05-10 20:48:40,-23.35,-47.69,73.99,39,0,4.34,clear sky,0.0,0.0
476,Avera,US,2020-05-10 20:48:40,33.19,-82.53,75.2,33,1,4.7,clear sky,0.0,0.0
477,Mporokoso,ZM,2020-05-10 20:48:40,-9.37,30.12,60.26,86,73,7.9,broken clouds,0.0,0.0
478,Channel-Port Aux Basques,CA,2020-05-10 20:48:40,47.57,-59.14,32.99,92,68,31.52,broken clouds,0.0,0.0
479,Ketchikan,US,2020-05-10 20:48:40,55.34,-131.65,71.6,21,1,13.87,clear sky,0.0,0.0
480,Ryotsu,JP,2020-05-10 20:48:40,38.08,138.43,59.0,93,75,5.82,broken clouds,0.0,0.0
481,Rock Sound,BS,2020-05-10 20:48:40,24.9,-76.2,75.02,91,100,19.22,heavy intensity rain,0.0,0.0
482,Winkler,CA,2020-05-10 20:48:41,49.18,-97.94,48.2,34,20,24.16,few clouds,0.0,0.0
483,Floriano,BR,2020-05-10 20:48:41,-6.77,-43.02,77.92,76,100,4.0,overcast clouds,0.0,0.0
484,Zhireken,RU,2020-05-10 20:48:41,52.82,117.31,35.56,80,39,11.54,light snow,0.0,0.0
485,Seoul,KR,2020-05-10 20:46:10,37.57,126.98,57.2,100,40,2.24,mist,0.0,0.0
486,Saint Albans,GB,2020-05-10 20:48:41,51.75,-0.33,45.0,71,88,7.0,overcast clouds,0.0,0.0
487,Dicabisagan,PH,2020-05-10 20:48:42,17.08,122.42,78.51,80,13,3.22,few clouds,0.0,0.0
488,Trapani,IT,2020-05-10 20:48:42,37.83,12.67,68.0,77,20,16.11,few clouds,0.0,0.0
489,Mahenge,TZ,2020-05-10 20:48:42,-8.68,36.72,62.76,90,13,2.91,few clouds,0.0,0.0
490,Verkhoyansk,RU,2020-05-10 20:48:42,67.54,133.38,29.44,96,100,5.86,overcast clouds,0.0,0.0
491,Playa Del Carmen,MX,2020-05-10 20:48:42,20.63,-87.08,82.4,78,90,5.82,light rain,0.0,0.0
492,Totness,SR,2020-05-10 20:48:42,5.88,-56.32,79.48,87,4,11.56,light rain,0.0,0.0
493,Sao Filipe,CV,2020-05-10 20:48:42,14.9,-24.5,73.24,76,5,10.29,clear sky,0.0,0.0
494,Tucuma,BR,2020-05-10 20:48:42,-0.18,-50.05,79.65,87,50,6.44,scattered clouds,0.0,0.0
495,Springbok,ZA,2020-05-10 20:48:42,-29.66,17.89,65.08,30,0,5.06,clear sky,0.0,0.0
496,Bermeo,ES,2020-05-10 20:48:43,43.42,-2.72,60.01,87,75,11.41,broken clouds,0.0,0.0
497,Alunis,RO,2020-05-10 20:48:43,45.2,25.87,51.01,88,2,4.32,clear sky,0.0,0.0
498,Svetlogorsk,BY,2020-05-10 20:48:43,52.63,29.73,49.86,77,0,3.36,clear sky,0.0,0.0
499,Bayburt,TR,2020-05-10 20:48:43,40.26,40.23,34.68,86,0,0.36,clear sky,0.0,0.0
500,Cap-Aux-Meules,CA,2020-05-10 20:48:43,47.38,-61.86,37.4,69,75,25.28,broken clouds,0.0,0.0
501,Port Blair,IN,2020-05-10 20:48:43,11.67,92.75,83.95,72,100,1.79,overcast clouds,0.0,0.0
502,San Pedro,PH,2020-05-10 20:48:44,14.35,121.02,82.4,83,20,2.24,few clouds,0.0,0.0
503,Ust-Kuyga,RU,2020-05-10 20:48:44,70.02,135.6,25.47,97,100,7.11,overcast clouds,0.0,0.0
504,Qui Nhon,VN,2020-05-10 20:47:08,13.77,109.23,76.77,85,1,3.96,clear sky,0.0,0.0
